City_ID,City,Lat,Lng,Max Temp,Humidity,Cloudiness,Wind Speed,Country,Date
0,isafjordur,66.0755,-23.124,10.02,66,0,6.17,IS,1689515619
1,bilibino,68.0546,166.4372,18.66,52,2,1.87,RU,1689515619
2,emirgazi,37.9022,33.8372,29.5,19,0,8.88,TR,1689515619
3,college,64.8569,-147.8028,14.94,87,75,2.57,US,1689515528
4,fortaleza,-3.7227,-38.5247,29.07,70,75,7.72,BR,1689515411
5,luderitz,-26.6481,15.1594,21.77,41,0,5.56,NA,1689515620
6,sinan,34.8262,126.1086,23.06,96,29,4.9,KR,1689515620
7,chonchi,-42.6128,-73.8092,1.73,86,7,1.13,CL,1689515620
8,port-aux-francais,-49.35,70.2167,2.07,61,19,14.48,TF,1689515620
9,ushuaia,-54.8,-68.3,2.81,81,75,6.17,AR,1689515621
10,rongelap,11.1635,166.8941,28.18,79,92,6.19,MH,1689515621
11,lovington,32.944,-103.3485,23.47,69,32,0.45,US,1689515621
12,saint-philippe,-21.3585,55.7679,22.77,86,61,7.24,RE,1689515621
13,tura,25.5198,90.2201,24.83,90,100,2.44,IN,1689515622
14,port mathurin,-19.6833,63.4167,23.59,79,1,11.18,MU,1689515622
15,porto novo,6.4965,2.6036,29.9,63,83,5.21,BJ,1689515622
16,waitangi,-43.9535,-176.5597,9.34,81,100,8.16,NZ,1689515622
17,mbanza-ngungu,-5.25,14.8667,35.06,22,3,1.48,CD,1689515622
18,murzuq,25.9155,13.9184,38.33,9,10,4.92,LY,1689515623
19,edinburgh of the seven seas,-37.0676,-12.3116,13.59,77,13,13.97,SH,1689515623
20,angel r. cabada,18.5833,-95.4333,26.63,79,19,1.21,MX,1689515485
21,kismayo,-0.3582,42.5454,26.16,72,53,8.7,SO,1689515623
22,itoman,26.1247,127.6694,28.43,86,75,6.69,JP,1689515623
23,iqaluit,63.7506,-68.5145,8.85,87,75,3.09,CA,1689515624
24,fisterra,42.9049,-9.2629,20.97,66,44,5.15,ES,1689515624
25,blackmans bay,-43.0167,147.3167,12.63,64,51,5.36,AU,1689515624
26,shimoda,34.6667,138.95,26.72,92,59,5.85,JP,1689515624
27,puerto natales,-51.7236,-72.4875,-0.75,80,20,4.63,CL,1689515624
28,alofi,-19.0595,-169.9187,20.94,88,100,4.63,NU,1689515625
29,grytviken,-54.2811,-36.5092,-4.79,78,72,1.43,GS,1689515625
30,utrik,11.2278,169.8474,27.97,80,98,6.4,MH,1689515625
31,hithadhoo,-0.6,73.0833,28.21,73,9,0.79,MV,1689515625
32,dhidhdhoo,6.8833,73.1,28.19,80,88,6.26,MV,1689515626
33,palikir - national government center,6.9248,158.1611,26.44,85,100,6.6,FM,1689515626
34,belyy yar,53.6039,91.3903,17.94,68,20,3.0,RU,1689515626
35,nyurba,63.2842,118.3319,8.97,77,35,2.38,RU,1689515627
36,st. john's,47.5649,-52.7093,25.71,75,75,4.63,CA,1689515627
37,harper,4.375,-7.7169,26.74,78,73,4.66,LR,1689515627
38,tiksi,71.6872,128.8694,4.24,94,100,1.22,RU,1689515628
39,margaret river,-33.95,115.0667,16.05,67,100,6.67,AU,1689515628
40,iquitos,-3.7481,-73.2472,24.02,100,75,1.03,PE,1689515628
41,pfaffikon,47.3645,8.792,26.82,58,40,2.06,CH,1689515629
42,east london,-33.0153,27.9116,20.52,49,0,4.63,ZA,1689515629
43,albany,42.6001,-73.9662,23.68,94,100,0.99,US,1689515368
44,balabac,7.9868,117.0645,28.94,77,98,6.7,PH,1689515630
45,urangan,-25.3,152.9,18.93,79,81,5.43,AU,1689515630
46,nago,26.5881,127.9761,28.47,83,100,9.11,JP,1689515630
47,bethel,41.3712,-73.414,24.73,88,100,3.09,US,1689515588
48,arteche,12.2645,125.4048,25.94,87,100,2.59,PH,1689515631
49,naju,35.0283,126.7175,22.9,97,3,2.06,KR,1689515631
50,badger,64.8,-147.5333,14.89,89,100,2.57,US,1689515631
51,robore,-18.3333,-59.75,26.61,46,9,1.69,BO,1689515632
52,aykhal,66.0,111.5,10.61,54,100,3.94,RU,1689515632
53,whitehorse,60.7161,-135.0538,13.23,71,20,3.09,CA,1689515518
54,weno,7.4515,151.8468,28.97,84,75,2.06,FM,1689515633
55,san antonio de pale,-1.4014,5.6325,23.05,81,14,4.0,GQ,1689515633
56,port elizabeth,-33.918,25.5701,20.16,45,0,6.69,ZA,1689515633
57,hawaiian paradise park,19.5933,-154.9731,20.73,91,100,2.06,US,1689515633
58,northam,51.0333,-4.2167,16.88,70,100,7.75,GB,1689515634
59,pasighat,28.0667,95.3333,24.74,95,100,1.04,IN,1689515634
60,sibut,5.718,19.0739,30.84,54,8,1.65,CF,1689515634
61,kriva palanka,42.2019,22.3319,30.91,49,29,0.8,MK,1689515634
62,olonkinbyen,70.9221,-8.7187,4.24,96,100,9.94,SJ,1689515635
63,hermanus,-34.4187,19.2345,19.89,72,100,6.23,ZA,1689515635
64,ribeira grande,38.5167,-28.7,22.65,73,40,5.36,PT,1689515635
65,ilulissat,69.2167,-51.1,4.01,100,100,0.0,GL,1689515635
66,aldan,58.6031,125.3894,11.48,85,73,0.88,RU,1689515635
67,mejit,10.2753,170.8646,28.0,79,100,5.37,MH,1689515636
68,adamstown,-25.066,-130.1015,20.96,78,96,2.84,PN,1689515636
69,bikenibeu village,1.3673,173.1241,27.98,83,20,1.03,KI,1689515636
70,tazovsky,67.4667,78.7,10.95,53,4,3.17,RU,1689515636
71,avarua,-21.2078,-159.775,23.03,73,100,2.57,CK,1689515637
72,canals,38.9625,-0.5844,30.12,64,65,2.24,ES,1689515637
73,fort bragg,35.139,-79.006,29.14,88,0,4.12,US,1689515637
74,sandnessjoen,66.0217,12.6316,17.29,88,75,2.06,NO,1689515637
75,vadso,70.0744,29.7487,19.49,63,13,3.6,NO,1689515637
76,yellowknife,62.456,-114.3525,16.29,72,75,3.09,CA,1689515394
77,anadyr,64.75,177.4833,15.28,67,0,4.0,RU,1689515638
78,beitbridge,-22.2167,30.0,26.71,14,0,1.0,ZW,1689515638
79,afaahiti,-17.75,-149.2833,20.93,62,0,2.45,PF,1689515638
80,tacuarembo,-31.7333,-55.9833,11.02,62,3,3.27,UY,1689515638
81,vernon,50.2581,-119.2691,23.02,44,0,5.14,CA,1689515639
82,puerto ayora,-0.7393,-90.3518,25.31,90,24,1.79,EC,1689515639
83,nemuro,43.3236,145.575,12.72,94,100,2.15,JP,1689515639
84,lebu,-37.6167,-73.65,7.66,73,100,5.81,CL,1689515639
85,floro,61.5996,5.0328,20.04,68,75,8.75,NO,1689515639
86,basotu,-4.3667,35.0833,26.41,22,3,3.21,TZ,1689515640
87,saint-pierre,-21.3393,55.4781,23.65,83,20,13.38,RE,1689515640
88,gobabis,-22.45,18.9667,23.31,16,0,4.87,NA,1689515640
89,hampton bays,40.869,-72.5176,25.1,97,100,5.36,US,1689515640
90,kutum,14.2,24.6667,33.84,18,54,3.63,SD,1689515641
91,bredasdorp,-34.5322,20.0403,19.51,65,97,3.44,ZA,1689515641
92,gadzhiyevo,69.2551,33.3362,16.59,65,70,3.74,RU,1689515641
93,villa gesell,-37.2639,-56.973,8.92,63,85,8.33,AR,1689515561
94,moyobamba,-6.05,-76.9667,21.29,87,99,0.29,PE,1689515642
95,hirado,33.3597,129.5531,27.99,90,0,5.93,JP,1689515643
96,chandler,33.3062,-111.8412,35.18,40,40,3.6,US,1689515392
97,tazacorte,28.629,-17.9293,24.54,69,75,8.75,ES,1689515643
98,chornomors'k,46.305,30.6548,25.52,53,0,5.06,UA,1689515643
99,deder,9.3167,41.45,20.51,60,50,3.0,ET,1689515644
100,togur,58.3631,82.8265,18.46,77,10,3.4,RU,1689515644
101,aasiaat,68.7098,-52.8699,2.49,94,100,2.63,GL,1689515645
102,gualeguaychu,-33.0094,-58.5172,8.27,85,2,4.13,AR,1689515646
103,arraial do cabo,-22.9661,-42.0278,23.98,60,0,5.14,BR,1689515646
104,peniche,39.3558,-9.3811,25.16,64,73,8.64,PT,1689515646
105,remire-montjoly,4.9167,-52.2667,30.02,70,75,3.6,GF,1689515646
106,georgetown,5.4112,100.3354,29.97,79,20,1.03,MY,1689515516
107,dudinka,69.4058,86.1778,7.57,65,100,4.62,RU,1689515647
108,longyearbyen,78.2186,15.6401,13.91,47,0,6.69,SJ,1689515647
109,ranau,5.9538,116.6641,22.36,72,96,1.09,MY,1689515647
110,queenstown,-31.8976,26.8753,18.26,25,1,6.95,ZA,1689515648
111,atafu village,-8.5421,-172.5159,28.04,75,99,5.09,TK,1689515648
112,rio grande,-32.035,-52.0986,13.06,69,0,5.44,BR,1689515648
113,villa huidobro,-34.8383,-64.5869,8.55,42,66,1.16,AR,1689515649
114,bamboo flat,11.7,92.7167,29.05,79,75,4.63,IN,1689515649
115,belen,36.4891,36.2233,35.08,17,0,8.75,TR,1689515649
116,flin flon,54.7682,-101.865,11.91,94,100,4.63,CA,1689515649
117,batibo,5.8358,9.8553,24.22,80,49,0.39,CM,1689515650
118,sobral,-3.6861,-40.3497,32.38,41,71,3.85,BR,1689515650
119,la rinconada,37.4873,-5.9826,37.25,23,0,1.03,ES,1689515650
120,trincomalee,8.5711,81.2335,29.52,75,75,0.88,LK,1689515650
121,tatishchevo,51.6703,45.5953,19.82,76,95,6.59,RU,1689515462
122,joshimath,30.5667,79.5667,23.24,95,95,0.25,IN,1689515651
123,fonte boa,-2.4959,-66.2662,27.83,73,67,0.83,BR,1689515651
124,stanley,54.868,-1.6985,18.77,64,40,11.83,GB,1689515651
125,talnakh,69.4865,88.3972,7.34,90,100,3.05,RU,1689515649
126,enewetak,11.3474,162.3373,28.0,81,99,5.44,MH,1689515652
127,crane,31.3974,-102.3501,27.88,48,15,7.06,US,1689515652
128,laguna,38.421,-121.4238,27.02,71,0,0.0,US,1689515653
129,paracuru,-3.41,-39.0306,28.39,58,34,6.91,BR,1689515653
130,ocean shores,46.9737,-124.1563,14.42,97,100,2.57,US,1689515653
131,vorgashor,67.5833,63.95,18.87,63,96,2.65,RU,1689515653
132,suez,29.9737,32.5263,41.31,12,0,5.61,EG,1689515654
133,khandud,36.9513,72.318,20.05,50,95,2.42,AF,1689515654
134,lorengau,-2.0226,147.2712,27.76,77,68,4.33,PG,1689515654
135,nar'yan-mar,67.6713,53.087,23.27,55,51,3.54,RU,1689515654
136,ancud,-41.8697,-73.8203,3.96,81,6,3.84,CL,1689515655
137,cherdakly,54.3594,48.845,17.97,82,75,6.0,RU,1689515655
138,tokar,18.4254,37.729,43.59,18,5,8.91,SD,1689515655
139,invercargill,-46.4,168.35,7.51,85,79,5.3,NZ,1689515272
140,orito,0.6766,-76.8771,25.15,70,86,0.54,CO,1689515656
141,newman,37.3138,-121.0208,23.49,31,100,1.12,US,1689515656
142,walvis bay,-22.9575,14.5053,21.72,33,0,5.81,NA,1689515657
143,rabo de peixe,37.8,-25.5833,22.73,60,20,4.63,PT,1689515657
144,punta arenas,-53.15,-70.9167,2.06,87,40,4.12,CL,1689515190
145,al hufuf,25.3646,49.5653,46.19,9,0,7.2,SA,1689515658
146,key west,24.5557,-81.7826,32.22,70,20,3.09,US,1689515658
147,calabar,4.9517,8.322,28.34,78,79,2.32,NG,1689515658
148,qamdo,31.1667,97.2333,8.32,79,98,1.85,CN,1689515658
149,nynashamn,58.9034,17.9479,21.2,72,53,6.27,SE,1689515659
150,kasongo-lunda,-6.4667,16.8167,37.02,16,10,2.12,CD,1689515659
151,north bay,46.3168,-79.4663,21.01,88,75,1.54,CA,1689515660
152,happy valley-goose bay,53.3168,-60.3315,23.17,68,75,6.69,CA,1689515660
153,codrington,-38.2667,141.9667,6.91,90,38,4.5,AU,1689515660
154,urzhar,47.093,81.6294,28.18,18,0,3.67,KZ,1689515660
155,west island,-12.1568,96.8225,25.99,69,75,8.23,CC,1689515661
156,vorkuta,67.5,64.0,19.94,61,94,3.67,RU,1689515661
157,shenjiamen,29.9576,122.298,26.28,94,99,6.84,CN,1689515661
158,carnarvon,-24.8667,113.6333,17.67,54,0,5.24,AU,1689515662
159,saipan,15.1355,145.701,28.39,100,20,4.63,MP,1689515663
160,al muwayh,22.4333,41.7583,41.9,6,10,2.21,SA,1689515663
161,vitebsk,55.1905,30.2033,27.36,29,0,2.0,BY,1689515664
162,nova sintra,14.8667,-24.7167,22.8,83,100,3.32,CV,1689515664
163,lompoc,34.6391,-120.4579,14.08,100,100,0.0,US,1689515664
164,taltal,-25.4,-70.4833,18.94,55,82,2.06,CL,1689515665
165,bowen,-20.0167,148.2333,19.78,78,2,7.03,AU,1689515665
166,mersa matruh,31.3525,27.2453,30.11,66,0,6.17,EG,1689515665
167,trimbak,19.9333,73.55,21.08,92,100,3.89,IN,1689515665
168,sorong,-0.8833,131.25,25.53,88,100,4.18,ID,1689515665
169,palmer,42.1584,-72.3287,24.79,85,100,4.12,US,1689515666
170,nenjiang,49.1833,125.2167,16.52,76,95,1.66,CN,1689515666
171,filadelfia,39.9523,-75.1638,26.23,91,100,2.57,US,1689515624
172,san jose del guaviare,2.5729,-72.6459,26.14,82,58,1.19,CO,1689515667
173,abu jibeha,11.4562,31.2285,32.15,41,72,3.99,SD,1689515667
174,yankton,42.8711,-97.3973,21.71,57,19,1.92,US,1689515428
175,suntar,62.1444,117.6319,9.65,70,3,1.69,RU,1689515668
176,keflavik,64.0049,-22.5624,12.24,62,0,9.77,IS,1689515668
177,antsiranana,-12.2787,49.2917,29.42,48,20,4.12,MG,1689515668
178,nueve de julio,-35.4444,-60.8831,4.42,79,1,1.34,AR,1689515668
179,huai khot,15.2909,99.6166,30.58,65,98,1.95,TH,1689515668
180,ta`u,-14.2336,-169.5144,26.4,80,100,9.46,AS,1689515669
181,papao,-17.75,-149.55,21.82,61,0,1.61,PF,1689515669
182,puerto aysen,-45.4,-72.7,-0.45,91,92,0.7,CL,1689515669
183,cole harbour,44.6724,-63.4751,24.54,93,94,4.63,CA,1689515669
184,la passe,45.5549,-0.8967,23.9,51,1,5.83,FR,1689515670
185,mar del plata,-38.0023,-57.5575,8.3,82,40,7.6,AR,1689515670
186,tongouson,5.0214,120.1328,28.59,74,100,7.64,PH,1689515670
187,sevastopol,44.6,33.5333,25.57,56,0,6.08,UA,1689515670
188,thompson,55.7435,-97.8558,11.09,87,100,4.12,CA,1689515671
189,lospalos,-8.5186,127.0025,21.73,86,91,4.61,TL,1689515671
190,boca suno,-0.7167,-77.1333,23.77,75,76,0.24,EC,1689515672
191,mount gambier,-37.8333,140.7667,8.93,79,60,2.64,AU,1689515672
192,krasavino,60.9614,46.4814,23.08,55,100,1.41,RU,1689515672
193,borogontsy,62.6683,131.1683,10.87,66,90,1.19,RU,1689515673
194,yima,34.7381,111.8839,25.67,56,0,1.47,CN,1689515673
195,udachny,66.4167,112.4,11.92,46,100,4.2,RU,1689515673
196,alaghsas,17.0187,8.0168,39.94,24,0,5.14,NE,1689515673
197,madimba,-10.4,40.3333,29.62,48,20,7.2,TZ,1689515673
198,crewkerne,50.883,-2.7959,19.05,73,75,3.09,GB,1689515674
199,bang saphan,11.2126,99.5117,25.51,90,100,4.05,TH,1689515674
200,alice springs,-23.7,133.8833,8.75,87,0,0.0,AU,1689515674
201,visakhapatnam,17.69,83.2093,30.94,66,75,6.17,IN,1689515557
202,catriel,-37.8791,-67.7956,5.54,64,5,3.09,AR,1689515675
203,port washington,40.8257,-73.6982,25.89,88,100,4.92,US,1689515529
204,vanimo,-2.6741,141.3028,25.7,87,94,1.43,PG,1689515675
205,iskateley,67.6803,53.1512,23.03,56,53,3.36,RU,1689515675
206,jamestown,42.097,-79.2353,22.23,94,100,2.57,US,1689515676
207,hamilton,39.1834,-84.5333,24.3,89,0,3.6,US,1689515655
208,mizdah,31.4451,12.9801,39.57,7,0,8.24,LY,1689515676
209,fale old settlement,-9.3852,-171.2468,27.95,76,100,6.21,TK,1689515676
210,port lincoln,-34.7333,135.8667,10.22,73,0,2.16,AU,1689515677
211,rasht,37.2808,49.5832,28.9,58,75,2.06,IR,1689515512
212,la ronge,55.1001,-105.2842,14.14,72,20,4.63,CA,1689515677
213,pandan,14.0453,124.1694,27.11,84,100,4.0,PH,1689515678
214,pauini,-7.7136,-66.9764,30.54,49,5,0.98,BR,1689515678
215,kievka,50.2619,71.5514,26.14,33,27,4.46,KZ,1689515678
216,sabang,5.8933,95.3214,28.48,80,100,10.92,ID,1689515678
217,tha maka,13.9,99.7667,31.61,62,90,4.68,TH,1689515678
218,vila franca do campo,37.7167,-25.4333,23.23,59,37,2.09,PT,1689515679
219,cozumel,20.5083,-86.9458,31.08,87,12,2.68,MX,1689515665
220,punto fijo,11.6956,-70.1996,28.76,71,82,11.78,VE,1689515679
221,bonthe,7.5264,-12.505,26.93,77,84,4.23,SL,1689515679
222,dunedin,-45.8742,170.5036,7.67,58,44,3.6,NZ,1689515679
223,petropavlovsk-kamchatsky,53.0452,158.6483,10.33,100,20,0.0,RU,1689515680
224,uliastay,47.7417,96.8444,19.61,31,21,1.12,MN,1689515680
225,mata-utu,-13.2816,-176.1745,27.0,79,100,8.29,WF,1689515680
226,tual,-5.6667,132.75,26.41,81,96,9.44,ID,1689515680
227,glace bay,46.1969,-59.957,24.88,85,75,3.6,CA,1689515680
228,upington,-28.4478,21.2561,24.21,20,0,1.54,ZA,1689515681
229,nabire,-3.3667,135.4833,25.49,90,100,1.35,ID,1689515681
230,xinyuan,37.3,99.0,7.74,86,51,3.08,CN,1689515681
231,murray bridge,-35.1167,139.2667,7.41,82,0,1.1,AU,1689515681
232,touros,-5.1989,-35.4608,29.18,58,8,7.63,BR,1689515681
233,usinsk,65.9939,57.5281,26.38,33,44,2.5,RU,1689515682
234,gresovskiy,45.008,34.0266,29.2,26,0,3.89,UA,1689515682
235,newnham,-41.3833,147.1333,10.73,85,75,6.17,AU,1689515682
236,haiku-pauwela,20.9219,-156.3051,24.01,73,100,5.14,US,1689515683
237,ghadamis,30.1337,9.5007,40.88,6,0,6.27,LY,1689515683
238,kailua-kona,19.6406,-155.9956,23.98,87,100,2.06,US,1689515683
239,bridgeport,41.167,-73.2048,25.54,85,100,5.66,US,1689515501
240,buncrana,55.1333,-7.45,15.87,80,58,7.09,IE,1689515683
241,vilyuchinsk,52.9306,158.4028,11.15,97,42,0.45,RU,1689515684
242,sundargarh,22.1167,84.0333,25.94,83,85,2.74,IN,1689515684
243,kavieng,-2.5744,150.7967,27.94,75,100,2.77,PG,1689515684
244,peterhead,57.5058,-1.7981,19.22,80,71,7.97,GB,1689515684
245,castillos,-34.1667,-53.8333,10.59,59,18,5.61,UY,1689515685
246,klyuchi,52.2667,79.1667,18.98,66,54,6.89,RU,1689515685
247,okha,53.5739,142.9478,10.74,84,100,3.59,RU,1689515685
248,pitimbu,-7.4706,-34.8086,25.33,76,19,6.08,BR,1689515686
249,east hemet,33.74,-116.9389,34.36,31,100,0.37,US,1689515686
250,qaqortoq,60.7167,-46.0333,6.81,91,100,3.29,GL,1689515686
251,kingston,17.997,-76.7936,32.36,66,20,2.57,JM,1689515687
252,ust'-ilimsk,58.0006,102.6619,16.46,97,91,1.51,RU,1689515687
253,biloela,-24.4167,150.5,16.63,78,100,3.92,AU,1689515688
254,armacao de buzios,-22.7469,-41.8817,25.03,64,0,6.24,BR,1689515688
255,guerrero negro,27.9769,-114.0611,19.35,88,82,3.84,MX,1689515688
256,istmina,5.1605,-76.684,26.63,89,92,1.0,CO,1689515688
257,rock springs,41.5875,-109.2029,15.69,38,0,1.54,US,1689515688
258,sharjah,25.3573,55.4033,41.16,31,0,6.69,AE,1689515410
259,cabo san lucas,22.8909,-109.9124,30.28,78,0,2.06,MX,1689515635
260,schwarzheide,51.4833,13.8667,30.63,36,54,4.02,DE,1689515509
261,magadan,59.5667,150.8,10.93,85,90,1.51,RU,1689515689
262,fort william,56.8165,-5.1121,13.5,92,100,3.0,GB,1689515690
263,naze,28.3667,129.4833,27.51,85,68,7.39,JP,1689515690
264,saldanha,-33.0117,17.9442,14.03,79,93,4.51,ZA,1689515690
265,minas de marcona,-15.2119,-75.1103,14.16,72,24,3.29,PE,1689515690
266,el galpon,-25.3807,-64.6526,14.69,50,0,2.08,AR,1689515691
267,bechar,31.6167,-2.2167,39.18,4,0,2.57,DZ,1689515676
268,lastoursville,-0.8143,12.7287,31.37,49,100,1.1,GA,1689515691
269,salacgriva,57.7536,24.3581,27.2,46,100,6.23,LV,1689515691
270,santa elena de uairen,4.6167,-61.1333,25.94,57,8,2.89,VE,1689515692
271,puerto deseado,-47.7503,-65.8938,0.87,65,12,8.62,AR,1689515692
272,lihue,21.9789,-159.3672,25.77,70,40,6.17,US,1689515681
273,kodiak,57.79,-152.4072,11.73,94,100,3.09,US,1689515692
274,labytnangi,66.6572,66.4183,20.93,59,90,3.24,RU,1689515693
275,ust-nera,64.5667,143.2,11.66,88,100,3.95,RU,1689515693
276,fengcheng,40.4536,124.0717,19.52,91,8,0.7,CN,1689515693
277,tommot,58.9564,126.2925,13.68,84,91,0.42,RU,1689515693
278,laibin,23.7,109.2667,29.08,62,63,3.12,CN,1689515694
279,coahuayana de hidalgo,18.7,-103.6583,26.93,85,95,1.31,MX,1689515694
280,constantia,44.1833,28.65,31.5,53,0,5.82,RO,1689515694
281,helena,46.5927,-112.0361,15.55,59,0,0.0,US,1689515695
282,steubenville,40.3698,-80.634,24.4,78,53,2.24,US,1689515579
283,swakopmund,-22.6833,14.5333,21.66,54,0,2.24,NA,1689515695
284,machico,32.7,-16.7667,27.29,73,40,4.63,PT,1689515695
285,port alfred,-33.5906,26.891,17.88,72,13,2.68,ZA,1689515695
286,bahia blanca,-38.7196,-62.2724,5.46,70,6,2.24,AR,1689515696
287,juegang,32.3174,121.1855,24.1,98,100,3.11,CN,1689515696
288,melfort,52.8667,-104.6177,12.07,82,33,3.6,CA,1689515696
289,staroderevyankovskaya,46.1276,38.9674,25.28,41,77,6.47,RU,1689515696
290,tanout,14.9709,8.8879,37.62,24,72,2.35,NE,1689515697
291,cooper's town,26.8667,-77.5167,29.31,76,100,5.6,BS,1689515697
292,papatowai,-46.5619,169.4708,8.31,74,51,5.98,NZ,1689515697
293,tateyama,34.9833,139.8667,24.92,92,78,7.81,JP,1689515697
294,mudanjiang,44.5833,129.6,17.38,95,40,2.24,CN,1689515697
295,wailua homesteads,22.0669,-159.378,25.44,71,40,6.17,US,1689515698
296,paraiso,9.8383,-83.8656,21.95,76,86,1.82,CR,1689515698
297,walsrode,52.8667,9.6,27.27,46,90,6.37,DE,1689515698
298,akureyri,65.6835,-18.0878,6.96,81,75,7.2,IS,1689515698
299,gilgit,35.9221,74.3087,33.2,37,46,0.63,PK,1689515699
300,kapuskasing,49.4169,-82.4331,18.05,82,75,2.06,CA,1689515699
301,pasuquin,18.3328,120.6177,28.97,79,100,6.17,PH,1689515699
302,ampanihy,-24.7,44.75,25.03,25,0,4.48,MG,1689515699
303,tolanaro,-25.0319,46.9987,23.04,64,20,9.77,MG,1689515700
304,extrema,-22.8547,-46.3183,22.87,41,5,2.96,BR,1689515700
305,roma,43.2128,-75.4557,26.01,89,100,1.54,US,1689515700
306,bardai,11.65,7.2333,34.35,34,85,3.73,NG,1689515700
307,mahbubabad,17.6167,80.0167,25.47,84,100,3.45,IN,1689515700
308,new richmond,45.123,-92.5366,18.84,88,100,3.09,US,1689515701
309,luganville,-15.5333,167.1667,24.37,86,99,7.74,VU,1689515701
310,chibougamau,49.9168,-74.3659,18.79,94,100,2.57,CA,1689515701
311,lawas,13.764,121.0566,25.55,88,100,3.14,PH,1689515702
312,masterton,-40.9597,175.6575,10.49,92,100,2.53,NZ,1689515687
313,fuerte olimpo,-21.0415,-57.8738,24.81,33,94,0.13,PY,1689515703
314,sisimiut,66.9395,-53.6735,6.75,90,100,0.79,GL,1689515703
315,irece,-11.3042,-41.8558,25.81,46,15,7.23,BR,1689515703
316,sinabang,2.4803,96.3801,26.86,81,46,1.81,ID,1689515703
317,nogliki,51.8333,143.1667,10.13,98,100,3.29,RU,1689515704
318,muisne,0.6,-80.0333,26.37,85,99,3.42,EC,1689515704
319,banda aceh,5.5577,95.3222,27.04,81,73,6.99,ID,1689515419
320,cooma,-36.2333,149.1333,2.96,92,0,0.97,AU,1689515705
321,al jawf,29.5,38.75,42.98,6,2,3.51,SA,1689515705
322,borrazopolis,-23.9411,-51.5875,15.71,58,84,0.84,BR,1689515705
323,guelmim,28.987,-10.0574,26.19,61,75,3.6,MA,1689515706
324,mitu,1.1983,-70.1733,26.97,75,93,1.12,CO,1689515706
325,lusambo,-4.9667,23.45,37.54,20,59,1.48,CD,1689515706
326,susuman,62.7833,148.1667,16.11,77,72,4.54,RU,1689515707
327,hobyo,5.3505,48.5268,26.6,73,56,14.09,SO,1689515707
328,lazaro cardenas,17.9583,-102.2,27.4,83,93,2.43,MX,1689515707
329,illizi,26.4833,8.4667,39.89,5,0,6.9,DZ,1689515708
330,buala,-8.145,159.5921,26.12,86,100,1.35,SB,1689515708
331,salahonda,2.1019,-78.7217,26.96,81,69,1.93,CO,1689515708
332,akrehamn,59.2667,5.1833,17.22,77,75,10.29,NO,1689515709
333,puerto carreno,6.189,-67.4859,26.99,83,20,1.54,CO,1689515709
334,bonham,33.5773,-96.1783,27.25,95,0,2.57,US,1689515709
335,toliara,-23.35,43.6667,23.25,60,0,3.67,MG,1689515710
336,kapa'a,22.0752,-159.319,26.18,71,40,6.17,US,1689515710
337,thunder bay,48.4001,-89.3168,15.99,72,75,1.54,CA,1689515481
338,yonan-up,37.9089,126.1611,22.17,98,99,2.29,KP,1689515710
339,kristiansund,63.1115,7.732,20.36,56,75,5.14,NO,1689515711
340,yerofey pavlovich,53.9667,121.9667,19.86,62,100,1.18,RU,1689515711
341,fort mcmurray,56.7268,-111.381,13.77,94,0,2.06,CA,1689515537
342,hotan,37.0997,79.9269,35.57,11,37,5.47,CN,1689515711
343,igarka,67.4667,86.5833,9.34,55,45,4.52,RU,1689515677
344,zhanaozen,43.3,52.8,28.67,32,24,5.6,KZ,1689515712
345,terrace,54.5163,-128.6035,15.95,100,100,2.06,CA,1689515712
346,faya-largeau,17.9257,19.1043,44.94,14,0,0.0,TD,1689515712
347,cody,44.5263,-109.0565,21.11,52,0,4.47,US,1689515684
348,ha'il,27.5219,41.6907,43.01,9,0,6.17,SA,1689515519
349,grand falls-windsor,48.9332,-55.6649,23.61,80,82,4.69,CA,1689515713
350,carolina beach,34.0352,-77.8936,31.7,79,73,4.85,US,1689515713
351,paranhos,-23.8928,-55.4311,16.86,53,96,1.68,BR,1689515714
352,bemidji,47.4736,-94.8803,14.87,78,75,7.2,US,1689515582
353,flying fish cove,-10.4217,105.6791,24.82,83,100,5.14,CX,1689515714
354,acarau,-2.8856,-40.12,29.83,59,41,6.96,BR,1689515714
355,babu,24.4167,111.5167,27.14,76,47,1.94,CN,1689515715
356,amahai,-3.3333,128.9167,24.81,88,100,0.91,ID,1689515715
357,pak phanang,8.3511,100.202,28.01,74,100,3.9,TH,1689515715
358,santo antonio do sudoeste,-26.0736,-53.7253,16.97,61,51,0.91,BR,1689515715
359,evergreen,39.6333,-105.3172,22.0,40,0,0.89,US,1689515716
360,tanjung pandan,-2.75,107.65,25.21,88,7,3.28,ID,1689515716
361,seydi,39.4816,62.9137,38.52,12,5,5.45,TM,1689515504
362,mahajanga,-15.7167,46.3167,32.01,37,20,3.09,MG,1689515717
363,mthatha,-31.5889,28.7844,24.31,20,0,2.87,ZA,1689515651
364,tarauaca,-8.1614,-70.7656,28.34,62,52,1.02,BR,1689515718
365,kolonia town,6.964,158.206,27.05,85,100,6.58,FM,1689515718
366,kidal,18.4411,1.4078,38.19,25,9,2.62,ML,1689515718
367,broome,42.2506,-75.833,24.56,83,100,3.09,US,1689515719
368,kayenta,36.7278,-110.2546,28.12,11,0,1.3,US,1689515719
369,bubaque,11.2833,-15.8333,27.57,76,52,6.43,GW,1689515719
370,soanierana ivongo,-16.9167,49.5833,21.57,78,96,6.31,MG,1689515720
371,kamaishi,39.2667,141.8833,23.28,88,77,3.27,JP,1689515720
372,north platte,41.1239,-100.7654,19.51,84,20,3.09,US,1689515720
373,san cristobal de las casas,16.75,-92.6333,13.17,82,99,1.18,MX,1689515721
374,mgandu,-5.95,34.1333,26.4,22,0,3.39,TZ,1689515721
375,labrador city,52.9463,-66.9114,16.95,82,40,2.57,CA,1689515721
376,coxim,-18.5067,-54.76,27.61,32,9,2.2,BR,1689515721
377,saint-felicien,48.6501,-72.4491,20.38,94,100,1.54,CA,1689515722
378,tamanrasset,22.785,5.5228,34.95,15,40,4.12,DZ,1689515722
379,nekrasovka,48.3525,135.2325,18.01,93,40,3.0,RU,1689515722
380,selfoss,63.9331,-20.9971,12.8,58,100,4.06,IS,1689515722
381,kasongo,-4.45,26.6667,36.58,17,9,2.21,CD,1689515723
382,turkmenbasy,40.0222,52.9552,28.43,39,0,10.8,TM,1689515723
383,pangkalanbuun,-2.6833,111.6167,23.4,93,7,1.48,ID,1689515723
384,butembo,0.15,29.2833,24.54,40,80,1.19,CD,1689515723
385,waunakee,43.1919,-89.4557,21.06,72,0,2.24,US,1689515724
386,banff,51.1762,-115.5698,15.27,87,5,1.54,CA,1689515724
387,callao,-12.0667,-77.15,21.16,68,100,1.54,PE,1689515724
388,robertsport,6.7533,-11.3686,26.74,76,99,4.5,LR,1689515724
389,santa maria del oro,25.9333,-105.3667,24.77,42,65,2.33,MX,1689515724
390,nadym,65.5333,72.5167,18.43,47,45,1.75,RU,1689515725
391,manggar,-2.8833,108.2667,27.24,80,24,6.32,ID,1689515725
392,ambon,-3.6954,128.1814,26.04,95,40,4.12,ID,1689515725
393,esikhaleni,-28.871,31.8996,24.42,41,0,1.55,ZA,1689515544
394,ravne na koroskem,46.5431,14.9692,34.23,48,56,2.73,SI,1689515726
395,vengerovo,55.6848,76.7471,18.69,83,85,6.27,RU,1689515726
396,sete,43.4018,3.6966,30.02,50,0,4.25,FR,1689515488
397,noumea,-22.2763,166.4572,17.99,69,4,5.04,NC,1689515726
398,soe,-9.8607,124.284,16.17,95,86,1.9,ID,1689515726
399,porbandar,21.6422,69.6093,28.72,80,23,6.47,IN,1689515568
400,kashima,33.1061,130.0906,28.22,84,0,1.56,JP,1689515727
401,ponta delgada,37.7333,-25.6667,23.4,60,20,4.63,PT,1689515727
402,vargem grande,-3.5431,-43.9158,32.7,43,2,2.41,BR,1689515727
403,girard,41.154,-80.7015,23.46,83,100,0.45,US,1689515727
404,corinto,37.9407,22.9573,34.38,32,0,5.97,GR,1689515728
405,porto velho,-8.7619,-63.9039,30.03,66,0,2.06,BR,1689515728
406,gereshk,31.8209,64.5701,39.33,5,0,4.32,AF,1689515728
407,dukhan,25.4297,50.7858,35.83,52,7,4.81,QA,1689515728
408,geraldton,-28.7667,114.6,7.23,81,0,1.54,AU,1689515709
409,bengkulu,-3.8004,102.2655,24.94,88,3,2.59,ID,1689515729
410,shinas,24.7433,56.4658,38.02,69,67,4.02,OM,1689515729
411,bayanhongor,46.7167,100.1167,14.87,59,100,1.99,MN,1689515729
412,kroya,-7.6331,109.2461,23.28,88,24,2.64,ID,1689515729
413,mana,5.6592,-53.7767,28.95,72,9,3.6,GF,1689515730
414,hilo,19.7297,-155.09,21.82,91,100,2.06,US,1689515541
415,sakakah,29.9697,40.2064,45.76,5,2,2.17,SA,1689515730
416,merizo village,13.2658,144.6691,27.85,94,63,7.07,GU,1689515730
417,talbahat,25.05,78.4333,27.92,80,75,3.42,IN,1689515731
418,safford,32.834,-109.7076,32.28,57,0,2.57,US,1689515731
419,san jose de las matas,19.3391,-70.9382,28.05,48,97,4.68,DO,1689515731
420,tabira,-7.5908,-37.5394,29.56,31,2,4.48,BR,1689515732
421,as sulayyil,20.4607,45.5779,46.14,5,24,5.39,SA,1689515732
422,nahrin,36.0649,69.1334,31.36,15,0,2.5,AF,1689515732
423,matthew town,20.95,-73.6667,29.75,71,0,7.48,BS,1689515733
424,sarh,9.1429,18.3923,32.95,52,40,2.57,TD,1689515733
425,canutama,-6.5339,-64.3831,30.91,52,39,1.38,BR,1689515733
426,ciudad lazaro cardenas,17.9583,-102.2,27.4,83,93,2.43,MX,1689515733
427,montepuez,-13.1256,38.9997,24.17,40,100,1.49,MZ,1689515734
428,dalhart,36.0595,-102.5133,20.82,94,0,4.12,US,1689515701
429,ozu,33.5,132.55,26.77,90,0,2.95,JP,1689515734
430,meadow lake,34.8014,-106.5436,24.72,63,0,0.42,US,1689515734
431,barra de santo antonio,-9.4047,-35.5072,28.6,80,48,4.49,BR,1689515735
432,katsuren-haebaru,26.3369,127.8719,28.43,86,20,6.17,JP,1689515735
433,prainha,-1.8,-53.48,30.1,59,18,2.67,BR,1689515735
434,kupino,54.3663,77.2981,18.1,78,22,3.73,RU,1689515735
435,tarawa,1.419,172.984,28.05,83,20,1.03,KI,1689515736
436,katsuura,35.1333,140.3,25.07,92,100,6.91,JP,1689515736
437,bartlesville,36.7473,-95.9808,26.17,87,0,0.45,US,1689515736
438,bouarfa,32.53,-1.95,36.2,4,0,6.86,MA,1689515737
439,paradip garh,20.3167,86.6167,28.43,81,85,6.02,IN,1689515737
440,kalayaan,14.35,121.5667,23.31,93,100,1.3,PH,1689515737
441,richards bay,-28.783,32.0377,24.36,40,0,1.64,ZA,1689515737
442,quatre cocos,-20.2078,57.7625,24.06,78,37,7.93,MU,1689515738
443,leh,34.1667,77.5833,17.79,60,97,2.84,IN,1689515738
444,sechura,-5.5569,-80.8222,23.6,71,69,5.49,PE,1689515738
445,tan-tan,28.438,-11.1032,23.97,68,75,10.8,MA,1689515738
446,tromso,69.6496,18.957,17.01,59,0,8.75,NO,1689515612
447,necochea,-38.5473,-58.7368,8.52,67,94,6.55,AR,1689515739
448,kuqa,41.7278,82.9364,31.8,22,51,13.71,CN,1689515739
449,sitka,57.0531,-135.33,13.94,94,75,1.54,US,1689515739
450,kousseri,12.0769,15.0306,34.98,41,20,2.06,CM,1689515739
451,mirny,62.5353,113.9611,9.79,64,93,1.66,RU,1689515740
452,as samawah,31.332,45.2944,46.57,5,0,3.51,IQ,1689515740
453,mugia,43.1041,-9.2179,21.06,64,13,4.33,ES,1689515740
454,hammerfest,70.6634,23.6821,16.25,72,0,6.69,NO,1689515740
455,iaciara,-14.0958,-46.6317,30.86,30,1,1.74,BR,1689515740
456,jiagedaqi,50.4167,124.1167,17.84,62,100,0.86,CN,1689515740
457,hadibu,12.65,54.0333,26.98,68,23,9.08,YE,1689515741
458,mildura,-34.2,142.15,7.21,75,0,2.46,AU,1689515741
459,tolmin,46.183,13.7332,33.82,46,0,2.92,SI,1689515741
460,kirakira,-10.4544,161.9205,25.71,91,100,4.03,SB,1689515741
461,nanyuki,0.0167,37.0728,22.07,46,53,4.51,KE,1689515741
462,ketchikan,55.3422,-131.6461,16.26,88,100,3.09,US,1689515742
463,saudarkrokur,65.7461,-19.6394,8.43,77,54,5.75,IS,1689515742
464,lugovoye,42.9094,72.7178,32.43,22,22,4.26,KZ,1689515742
465,sanming,26.2486,117.6186,26.14,90,96,1.5,CN,1689515742
466,balsas,-7.5325,-46.0356,33.49,25,5,4.65,BR,1689515743
467,nuuk,64.1835,-51.7216,10.34,87,75,2.06,GL,1689515743
468,chiang klang,19.2938,100.8617,24.62,98,100,0.25,TH,1689515743
469,belle fourche,44.6714,-103.8522,24.08,51,25,2.78,US,1689515743
470,pyhajarvi,67.0701,27.2176,22.49,38,73,4.59,FI,1689515743
471,khovd,48.0056,91.6419,25.83,27,0,3.69,MN,1689515744
472,fortuna,40.5982,-124.1573,13.19,95,69,2.35,US,1689515744
473,scottsburg,38.6856,-85.7702,23.77,70,0,0.45,US,1689515744
474,phaltan,17.9833,74.4333,24.23,81,100,4.45,IN,1689515744
475,sillamae,59.3997,27.7547,24.59,44,84,4.58,EE,1689515744
476,araguari,-18.6472,-48.1872,23.16,41,6,3.57,BR,1689515745
477,nelson bay,-32.7167,152.15,15.56,99,51,3.58,AU,1689515745
478,larkird,35.4894,66.6641,26.3,21,0,3.91,AF,1689515745
479,aitape,-3.1374,142.3475,25.75,88,40,1.21,PG,1689515745
480,blythe,33.6103,-114.5964,34.25,31,50,8.23,US,1689515661
481,shingu,33.7333,135.9833,24.15,94,16,3.22,JP,1689515746
482,saddiqabad,28.3062,70.1307,40.95,28,7,5.92,PK,1689515746
483,sahibganj,25.25,87.65,28.86,80,96,4.48,IN,1689515746
484,saint-denis,48.9167,2.3333,25.77,41,75,8.23,FR,1689515746
485,novodvinsk,64.4165,40.8122,23.93,45,36,3.19,RU,1689515747
486,ouesso,1.6136,16.0517,34.48,38,83,0.88,CG,1689515747
487,dzhambeyty,50.2536,52.595,16.73,91,100,9.26,KZ,1689515747
488,balky,47.3834,34.944,27.6,36,1,4.7,UA,1689515748
489,tomah,43.9786,-90.504,20.81,82,0,0.0,US,1689515748
490,opalenica,52.3089,16.4128,29.32,30,15,7.17,PL,1689515370
491,praya,14.9215,-23.5087,30.3,66,20,4.12,CV,1689515748
492,ceeldheer,3.8488,47.1806,27.36,65,71,12.08,SO,1689515748
493,chernyshevskiy,63.0128,112.4714,9.53,64,100,1.44,RU,1689515749
494,pagar alam,-4.0167,103.2667,20.81,98,72,1.25,ID,1689515749
495,nicoya,10.1483,-85.452,27.07,83,27,1.27,CR,1689515749
496,karratha,-20.7377,116.8463,19.9,41,0,2.81,AU,1689515749
497,prudhoe,54.9615,-1.8517,20.63,59,40,11.83,GB,1689515749
498,solikamsk,59.6196,56.7729,23.02,47,22,2.74,RU,1689515750
499,el calafate,-50.3408,-72.2768,-4.2,73,0,2.09,AR,1689515705
500,la sarre,48.8002,-79.1996,20.66,70,5,2.81,CA,1689515609
501,macea,46.3833,21.3,35.02,35,0,2.02,RO,1689515751
502,viedma,-40.8135,-62.9967,8.21,59,42,8.26,AR,1689515602
503,pacific grove,36.6177,-121.9166,25.91,100,40,0.0,US,1689515751
504,binka,21.0333,83.8,27.11,84,97,2.88,IN,1689515751
505,gorontalo,0.5412,123.0595,23.94,94,100,2.15,ID,1689515751
506,myski,53.709,87.8014,17.19,79,100,2.38,RU,1689515752
507,wynyard,-41.0,145.7167,11.13,79,100,4.45,AU,1689515752
508,pathein,16.7833,94.7333,26.44,87,100,2.84,MM,1689515752
509,sola,-13.8833,167.55,25.45,82,71,11.98,VU,1689515753
510,mount isa,-20.7333,139.5,20.87,49,100,2.57,AU,1689515753
511,laojunmiao,39.8333,97.7333,26.18,19,0,3.53,CN,1689515753
512,san luis de la loma,17.2706,-100.8939,28.65,69,73,1.04,MX,1689515753
513,jining,35.405,116.5814,26.51,51,0,2.02,CN,1689515754
514,yuzhno-kurilsk,44.0306,145.8556,13.14,92,100,0.94,RU,1689515754
515,icheon-si,37.2792,127.4425,24.61,100,100,0.51,KR,1689515754
516,sur,22.5667,59.5289,35.04,50,100,2.26,OM,1689515754
517,mount pearl,47.5166,-52.7813,25.25,74,75,4.63,CA,1689515754
518,frontera,26.9333,-101.45,29.07,63,0,0.89,MX,1689515755
519,latehar,23.75,84.5,27.08,84,86,1.02,IN,1689515755
520,antofagasta,-23.65,-70.4,16.6,64,72,1.74,CL,1689515755
521,birjand,32.8663,59.2211,35.26,8,0,12.35,IR,1689515756
522,grants,35.1473,-107.8514,16.13,17,0,0.0,US,1689515756
523,nuku'alofa,-21.1333,-175.2,20.19,83,75,4.63,TO,1689515757
524,fukuecho,32.6881,128.8419,27.01,89,2,6.63,JP,1689515757
525,santana,-0.0583,-51.1817,30.1,74,40,7.2,BR,1689515757
526,santa rosa,14.3122,121.1114,27.28,95,100,2.05,PH,1689515757
527,danilov,58.1908,40.1717,23.34,45,47,2.23,RU,1689515758
528,smiths station,32.5401,-85.0985,26.67,83,75,3.09,US,1689515490
529,altoona,40.5187,-78.3947,22.99,54,99,2.28,US,1689515159
530,abuko,13.4042,-16.6558,31.08,70,75,4.63,GM,1689515758
531,al qusiyah,27.4402,30.8184,42.15,9,0,3.75,EG,1689515758
532,broken hill,-31.95,141.4333,7.74,57,0,3.88,AU,1689515759
533,jumla,29.2747,82.1838,18.53,95,73,1.23,NP,1689515759
534,srivardhan,18.0333,73.0167,26.51,85,100,3.46,IN,1689515759
535,greenville,35.6127,-77.3663,29.01,94,100,3.6,US,1689515590
536,bontang,0.1333,117.5,25.37,85,98,3.77,ID,1689515760
537,vallenar,-28.5708,-70.7581,21.18,12,46,0.79,CL,1689515760
538,puerto escondido,15.85,-97.0667,26.46,78,100,3.09,MX,1689515760
539,voinjama,8.4219,-9.7478,24.9,91,92,1.28,LR,1689515760
540,jalqani,12.4486,34.2186,34.69,31,18,0.64,SD,1689515760
541,oban,56.4127,-5.4706,13.54,94,100,8.75,GB,1689515761
542,goz beida,13.95,20.55,37.46,23,81,1.11,TD,1689515761
543,yola,9.2,12.4833,33.9,55,40,2.57,NG,1689515762
544,luoyang,34.6836,112.4536,28.68,49,0,2.13,CN,1689515762
545,kununurra,-15.7667,128.7333,17.99,82,23,0.0,AU,1689515744
546,lewiston orchards,46.3804,-116.9754,24.95,43,0,0.0,US,1689515763
547,tofol,5.3248,163.0078,28.16,78,100,5.9,FM,1689515763
548,olinda,-8.0089,-34.8553,26.85,74,75,4.12,BR,1689515505
549,itaituba,-4.2761,-55.9836,29.09,79,20,1.03,BR,1689515763
550,lata,40.1629,-8.3327,27.49,39,39,5.26,PT,1689515764
551,modimolle,-24.7,28.4,20.51,20,0,3.79,ZA,1689515764
552,omaruru,-21.4333,15.9333,26.77,10,0,3.74,NA,1689515764
553,lingyuan,41.24,119.4011,20.75,66,1,1.39,CN,1689515765
554,ilhabela,-23.7781,-45.3581,22.63,57,3,1.68,BR,1689515765
555,sinop,41.7711,34.8709,22.38,63,16,3.94,TR,1689515765
